[{ "model" : "search.station", "pk" : 1, "fields" : {"stationLong": "4.83213506219083", "stationLat": "45.7677346863699", "stationName": "Terreaux / Terme", "stationNum": "1001", "stationRegion": "Lyon 1 er"}},{ "model" : "search.station", "pk" : 2, "fields" : {"stationLong": "4.83628239968643", "stationLat": "45.7675069105308", "stationName": "Op\u00e9ra", "stationNum": "1002", "stationRegion": "Lyon 1 er"}},{ "model" : "search.station", "pk" : 3, "fields" : {"stationLong": "4.83007978876956", "stationLat": "45.7692658462513", "stationName": "Place Sathonay", "stationNum": "1003", "stationRegion": "Lyon 1 er"}},{ "model" : "search.station", "pk" : 4, "fields" : {"stationLong": "4.83288970828215", "stationLat": "45.7660886007657", "stationName": "Meissonier", "stationNum": "1005", "stationRegion": "Lyon 1 er"}},{ "model" : "search.station", "pk" : 5, "fields" : {"stationLong": "4.81981665742037", "stationLat": "45.7678957694769", "stationName": "Subsistances", "stationNum": "1006", "stationRegion": "Lyon 1 er"}},{ "model" : "search.station", "pk" : 6, "fields" : {"stationLong": "4.83689574142056", "stationLat": "45.7658113822041", "stationName": "Amp\u00e8re", "stationNum": "1012", "stationRegion": "Lyon 1 er"}},{ "model" : "search.station", "pk" : 7, "fields" : {"stationLong": "4.82762170447115", "stationLat": "45.7682183165922", "stationName": "Martini\u00e8re", "stationNum": "1013", "stationRegion": "Lyon 1 er"}},{ "model" : "search.station", "pk" : 8, "fields" : {"stationLong": "4.83110736608632", "stationLat": "45.7659494939436", "stationName": "P\u00eacherie / Pl\u00e2ti\u00e8re", "stationNum": "1016", "stationRegion": "Lyon 1 er"}},{ "model" : "search.station", "pk" : 9, "fields" : {"stationLong": "4.83293380868471", "stationLat": "45.7668055276884", "stationName": "Terreaux / Chenavard", "stationNum": "1020", "stationRegion": "Lyon 1 er"}},{ "model" : "search.station", "pk" : 10, "fields" : {"stationLong": "4.83428848863327", "stationLat": "45.766915169442", "stationName": "Terreaux / Herriot", "stationNum": "1021", "stationRegion": "Lyon 1 er"}},{ "model" : "search.station", "pk" : 11, "fields" : {"stationLong": "4.83765826123897", "stationLat": "45.7696044219961", "stationName": "Place Tolozan", "stationNum": "1022", "stationRegion": "Lyon 1 er"}},{ "model" : "search.station", "pk" : 12, "fields" : {"stationLong": "4.8194888520227", "stationLat": "45.7722848585226", "stationName": "Croix Rousse / Duplat", "stationNum": "1023", "stationRegion": "Lyon 1 er"}},{ "model" : "search.station", "pk" : 13, "fields" : {"stationLong": "4.82463490877529", "stationLat": "45.769662873625", "stationName": "Rouville", "stationNum": "1024", "stationRegion": "Lyon 1 er"}},{ "model" : "search.station", "pk" : 14, "fields" : {"stationLong": "4.83174125171842", "stationLat": "45.7680236126547", "stationName": "Place de la Paix", "stationNum": "1031", "stationRegion": "Lyon 1 er"}},{ "model" : "search.station", "pk" : 15, "fields" : {"stationLong": "4.83639168535633", "stationLat": "45.7672004172203", "stationName": "Pizay", "stationNum": "1032", "stationRegion": "Lyon 1 er"}},{ "model" : "search.station", "pk" : 16, "fields" : {"stationLong": "4.82926950532075", "stationLat": "45.7700015740911", "stationName": "Carm\u00e9lites / Burdeau", "stationNum": "1034", "stationRegion": "Lyon 1 er"}},{ "model" : "search.station", "pk" : 17, "fields" : {"stationLong": "4.83791179292647", "stationLat": "45.7722014692572", "stationName": "Quai Lassagne", "stationNum": "1035", "stationRegion": "Lyon 1 er"}},{ "model" : "search.station", "pk" : 18, "fields" : {"stationLong": "4.83281500876046", "stationLat": "45.7743716157555", "stationName": "Aveyron", "stationNum": "1036", "stationRegion": "Lyon 1 er"}},{ "model" : "search.station", "pk" : 19, "fields" : {"stationLong": "4.83463639280925", "stationLat": "45.7579625159131", "stationName": "Bellecour / R\u00e9publique", "stationNum": "2001", "stationRegion": "Lyon 2 \u00e8me"}},{ "model" : "search.station", "pk" : 20, "fields" : {"stationLong": "4.83043945355408", "stationLat": "45.7582620430002", "stationName": "Bellecour", "stationNum": "2002", "stationRegion": "Lyon 2 \u00e8me"}},{ "model" : "search.station", "pk" : 21, "fields" : {"stationLong": "4.82826728262269", "stationLat": "45.7530437074095", "stationName": "Place Amp\u00e8re", "stationNum": "2003", "stationRegion": "Lyon 2 \u00e8me"}},{ "model" : "search.station", "pk" : 22, "fields" : {"stationLong": "4.82805150135516", "stationLat": "45.7500996433261", "stationName": "Perrache / Carnot", "stationNum": "2004", "stationRegion": "Lyon 2 \u00e8me"}},{ "model" : "search.station", "pk" : 23, "fields" : {"stationLong": "4.8191795184368", "stationLat": "45.7405383152039", "stationName": "Confluence H\u00f4tel de R\u00e9gion", "stationNum": "2005", "stationRegion": "Lyon 2 \u00e8me"}},{ "model" : "search.station", "pk" : 24, "fields" : {"stationLong": "4.82353267323631", "stationLat": "45.7455815521805", "stationName": "Place de l'Hippodrome", "stationNum": "2006", "stationRegion": "Lyon 2 \u00e8me"}},{ "model" : "search.station", "pk" : 25, "fields" : {"stationLong": "4.82049353568986", "stationLat": "45.7426463934711", "stationName": "Patinoire Charlemagne", "stationNum": "2007", "stationRegion": "Lyon 2 \u00e8me"}},{ "model" : "search.station", "pk" : 26, "fields" : {"stationLong": "4.83384102171215", "stationLat": "45.7567664047355", "stationName": "Bellecour / Antonin Poncet", "stationNum": "2008", "stationRegion": "Lyon 2 \u00e8me"}},{ "model" : "search.station", "pk" : 27, "fields" : {"stationLong": "4.8150739633739", "stationLat": "45.7396075027989", "stationName": "Confluence Les Docks", "stationNum": "2009", "stationRegion": "Lyon 2 \u00e8me"}},{ "model" : "search.station", "pk" : 28, "fields" : {"stationLong": "4.81581631155686", "stationLat": "45.7433919749566", "stationName": "Confluence Darse", "stationNum": "2010", "stationRegion": "Lyon 2 \u00e8me"}},{ "model" : "search.station", "pk" : 29, "fields" : {"stationLong": "4.82837438013951", "stationLat": "45.7568084876169", "stationName": "Sala / Rue du Plat", "stationNum": "2011", "stationRegion": "Lyon 2 \u00e8me"}},{ "model" : "search.station", "pk" : 30, "fields" : {"stationLong": "4.83335384395724", "stationLat": "45.7534549142114", "stationName": "Gailleton", "stationNum": "2012", "stationRegion": "Lyon 2 \u00e8me"}},{ "model" : "search.station", "pk" : 31, "fields" : {"stationLong": "4.83207161138638", "stationLat": "45.7599398325897", "stationName": "C\u00e9lestins", "stationNum": "2013", "stationRegion": "Lyon 2 \u00e8me"}},{ "model" : "search.station", "pk" : 32, "fields" : {"stationLong": "4.83428785025813", "stationLat": "45.7607457804815", "stationName": "Jacobins", "stationNum": "2014", "stationRegion": "Lyon 2 \u00e8me"}},{ "model" : "search.station", "pk" : 33, "fields" : {"stationLong": "4.83617293949585", "stationLat": "45.7609116633648", "stationName": "Place de la R\u00e9publique", "stationNum": "2015", "stationRegion": "Lyon 2 \u00e8me"}},{ "model" : "search.station", "pk" : 34, "fields" : {"stationLong": "4.83428668834704", "stationLat": "45.763076929567", "stationName": "Place Regaud", "stationNum": "2016", "stationRegion": "Lyon 2 \u00e8me"}},{ "model" : "search.station", "pk" : 35, "fields" : {"stationLong": "4.83595992507683", "stationLat": "45.7621899823468", "stationName": "R\u00e9publique / Ferrandi\u00e8re", "stationNum": "2017", "stationRegion": "Lyon 2 \u00e8me"}},{ "model" : "search.station", "pk" : 36, "fields" : {"stationLong": "4.82689094467313", "stationLat": "45.7512303840984", "stationName": "Carnot / Henri IV", "stationNum": "2022", "stationRegion": "Lyon 2 \u00e8me"}},{ "model" : "search.station", "pk" : 37, "fields" : {"stationLong": "4.82989232819922", "stationLat": "45.7546761673686", "stationName": "Hugo / Ste H\u00e9l\u00e8ne", "stationNum": "2023", "stationRegion": "Lyon 2 \u00e8me"}},{ "model" : "search.station", "pk" : 38, "fields" : {"stationLong": "4.83407651541315", "stationLat": "45.7587390821938", "stationName": "R\u00e9publique / Archers", "stationNum": "2024", "stationRegion": "Lyon 2 \u00e8me"}},{ "model" : "search.station", "pk" : 39, "fields" : {"stationLong": "4.83320595563798", "stationLat": "45.7620553014781", "stationName": "Brest / Ferrandi\u00e8re", "stationNum": "2025", "stationRegion": "Lyon 2 \u00e8me"}},{ "model" : "search.station", "pk" : 40, "fields" : {"stationLong": "4.83539920228165", "stationLat": "45.7593809563465", "stationName": "R\u00e9publique / Paufique", "stationNum": "2026", "stationRegion": "Lyon 2 \u00e8me"}},{ "model" : "search.station", "pk" : 41, "fields" : {"stationLong": "4.82214287043961", "stationLat": "45.7444223014223", "stationName": "Sainte Blandine", "stationNum": "2028", "stationRegion": "Lyon 2 \u00e8me"}},{ "model" : "search.station", "pk" : 42, "fields" : {"stationLong": "4.8355253578886", "stationLat": "45.7640723503116", "stationName": "R\u00e9publique / Palais de la Bourse", "stationNum": "2030", "stationRegion": "Lyon 2 \u00e8me"}},{ "model" : "search.station", "pk" : 43, "fields" : {"stationLong": "4.83575722356597", "stationLat": "45.7598793920463", "stationName": "R\u00e9publique / Childebert", "stationNum": "2035", "stationRegion": "Lyon 2 \u00e8me"}},{ "model" : "search.station", "pk" : 44, "fields" : {"stationLong": "4.83014467707224", "stationLat": "45.7594698848217", "stationName": "Place A.Gourju", "stationNum": "2036", "stationRegion": "Lyon 2 \u00e8me"}},{ "model" : "search.station", "pk" : 45, "fields" : {"stationLong": "4.82492586318928", "stationLat": "45.7479214794689", "stationName": "Place des Archives", "stationNum": "2037", "stationRegion": "Lyon 2 \u00e8me"}},{ "model" : "search.station", "pk" : 46, "fields" : {"stationLong": "4.82964894792985", "stationLat": "45.7530798612445", "stationName": "Hugo / Ainay", "stationNum": "2038", "stationRegion": "Lyon 2 \u00e8me"}},{ "model" : "search.station", "pk" : 47, "fields" : {"stationLong": "4.82984412575203", "stationLat": "45.7492533954914", "stationName": "Charit\u00e9 / R\u00e9camier", "stationNum": "2039", "stationRegion": "Lyon 2 \u00e8me"}},{ "model" : "search.station", "pk" : 48, "fields" : {"stationLong": "4.83190183734655", "stationLat": "45.7635730869941", "stationName": "Quai Saint Antoine", "stationNum": "2040", "stationRegion": "Lyon 2 \u00e8me"}},{ "model" : "search.station", "pk" : 49, "fields" : {"stationLong": "4.83301108468594", "stationLat": "45.7544732763091", "stationName": "Sala/Charit\u00e9", "stationNum": "2041", "stationRegion": "Lyon 2 \u00e8me"}},{ "model" : "search.station", "pk" : 50, "fields" : {"stationLong": "4.82473448931599", "stationLat": "45.7518482427555", "stationName": "Joffre/Cond\u00e9", "stationNum": "2042", "stationRegion": "Lyon 2 \u00e8me"}},{ "model" : "search.station", "pk" : 51, "fields" : {"stationLong": "4.85846417543021", "stationLat": "45.7602630058938", "stationName": "Gare Part-Dieu / Vivier Merle 1", "stationNum": "3001", "stationRegion": "Lyon 3 \u00e8me"}},{ "model" : "search.station", "pk" : 52, "fields" : {"stationLong": "4.85873229454524", "stationLat": "45.7601191127188", "stationName": "Gare Part Dieu ouest", "stationNum": "3002", "stationRegion": "Lyon 3 \u00e8me"}},{ "model" : "search.station", "pk" : 53, "fields" : {"stationLong": "4.8550066229888", "stationLat": "45.7629790120815", "stationName": "Part Dieu / Deruelle", "stationNum": "3003", "stationRegion": "Lyon 3 \u00e8me"}},{ "model" : "search.station", "pk" : 54, "fields" : {"stationLong": "4.84806584610847", "stationLat": "45.7596542197415", "stationName": "Place Guichard", "stationNum": "3004", "stationRegion": "Lyon 3 \u00e8me"}},{ "model" : "search.station", "pk" : 55, "fields" : {"stationLong": "4.84804242610368", "stationLat": "45.7537858652436", "stationName": "Place Victor Basch", "stationNum": "3005", "stationRegion": "Lyon 3 \u00e8me"}},{ "model" : "search.station", "pk" : 56, "fields" : {"stationLong": "4.87890312617537", "stationLat": "45.743441684171", "stationName": "Place d'Arsonval", "stationNum": "3007", "stationRegion": "Lyon 3 \u00e8me"}},{ "model" : "search.station", "pk" : 57, "fields" : {"stationLong": "4.8706875747776", "stationLat": "45.7458095692911", "stationName": "Institut Lumi\u00e8re", "stationNum": "3008", "stationRegion": "Lyon 3 \u00e8me"}},{ "model" : "search.station", "pk" : 58, "fields" : {"stationLong": "4.85792503006306", "stationLat": "45.750253311906", "stationName": "Mus\u00e9e Africain", "stationNum": "3009", "stationRegion": "Lyon 3 \u00e8me"}},{ "model" : "search.station", "pk" : 59, "fields" : {"stationLong": "4.85596120915002", "stationLat": "45.7593741320332", "stationName": "Part Dieu / Cuirassier", "stationNum": "3010", "stationRegion": "Lyon 3 \u00e8me"}},{ "model" : "search.station", "pk" : 60, "fields" : {"stationLong": "4.88728572321929", "stationLat": "45.7495170788471", "stationName": "Place du Ch\u00e2teau", "stationNum": "3012", "stationRegion": "Lyon 3 \u00e8me"}},{ "model" : "search.station", "pk" : 61, "fields" : {"stationLong": "4.88926855741309", "stationLat": "45.7536448445955", "stationName": "Place Ronde", "stationNum": "3013", "stationRegion": "Lyon 3 \u00e8me"}},{ "model" : "search.station", "pk" : 62, "fields" : {"stationLong": "4.85251059124107", "stationLat": "45.7607767054813", "stationName": "Servient / Garibaldi", "stationNum": "3015", "stationRegion": "Lyon 3 \u00e8me"}},{ "model" : "search.station", "pk" : 63, "fields" : {"stationLong": "4.84222758702112", "stationLat": "45.7593422663364", "stationName": "Libert\u00e9 / Rue Part Dieu", "stationNum": "3016", "stationRegion": "Lyon 3 \u00e8me"}},{ "model" : "search.station", "pk" : 64, "fields" : {"stationLong": "4.84840533316879", "stationLat": "45.7566992681841", "stationName": "Voltaire / Cr\u00e9qui", "stationNum": "3018", "stationRegion": "Lyon 3 \u00e8me"}},{ "model" : "search.station", "pk" : 65, "fields" : {"stationLong": "4.86975999964087", "stationLat": "45.7596463016226", "stationName": "Place de la Ferrandi\u00e8re", "stationNum": "3021", "stationRegion": "Lyon 3 \u00e8me"}},{ "model" : "search.station", "pk" : 66, "fields" : {"stationLong": "4.88537719793287", "stationLat": "45.741423112713", "stationName": "Rockfeller / Esquirol", "stationNum": "3024", "stationRegion": "Lyon 3 \u00e8me"}},{ "model" : "search.station", "pk" : 67, "fields" : {"stationLong": "4.85024742721997", "stationLat": "45.7530043530221", "stationName": "Place Aristide Briand", "stationNum": "3029", "stationRegion": "Lyon 3 \u00e8me"}},{ "model" : "search.station", "pk" : 68, "fields" : {"stationLong": "4.84451590396715", "stationLat": "45.7599305258836", "stationName": "Servient / Corneille", "stationNum": "3031", "stationRegion": "Lyon 3 \u00e8me"}},{ "model" : "search.station", "pk" : 69, "fields" : {"stationLong": "4.84713740895248", "stationLat": "45.763404572574", "stationName": "Lafayette / Cr\u00e9qui", "stationNum": "3032", "stationRegion": "Lyon 3 \u00e8me"}},{ "model" : "search.station", "pk" : 70, "fields" : {"stationLong": "4.8598633397749", "stationLat": "45.7537994582273", "stationName": "ZAC de la Buire", "stationNum": "3036", "stationRegion": "Lyon 3 \u00e8me"}},{ "model" : "search.station", "pk" : 71, "fields" : {"stationLong": "4.85347191211302", "stationLat": "45.7571230716872", "stationName": "Place des Martyrs de la R\u00e9sistance", "stationNum": "3037", "stationRegion": "Lyon 3 \u00e8me"}},{ "model" : "search.station", "pk" : 72, "fields" : {"stationLong": "4.85893496499598", "stationLat": "45.757330738679", "stationName": "Part Dieu / CAFAL", "stationNum": "3038", "stationRegion": "Lyon 3 \u00e8me"}},{ "model" : "search.station", "pk" : 73, "fields" : {"stationLong": "4.8557101486888", "stationLat": "45.752592143714", "stationName": "Place Bir Hakeim", "stationNum": "3039", "stationRegion": "Lyon 3 \u00e8me"}},{ "model" : "search.station", "pk" : 74, "fields" : {"stationLong": "4.86723027088668", "stationLat": "45.7540087872734", "stationName": "Place Rouget de L'Isle", "stationNum": "3043", "stationRegion": "Lyon 3 \u00e8me"}},{ "model" : "search.station", "pk" : 75, "fields" : {"stationLong": "4.84105343076621", "stationLat": "45.7619651301155", "stationName": "Augagneur / Bonnel", "stationNum": "3044", "stationRegion": "Lyon 3 \u00e8me"}},{ "model" : "search.station", "pk" : 76, "fields" : {"stationLong": "4.88056348866904", "stationLat": "45.7481664733629", "stationName": "Place Henri", "stationNum": "3051", "stationRegion": "Lyon 3 \u00e8me"}},{ "model" : "search.station", "pk" : 77, "fields" : {"stationLong": "4.85558284913296", "stationLat": "45.7511315804623", "stationName": "Gambetta / Jusserand", "stationNum": "3053", "stationRegion": "Lyon 3 \u00e8me"}},{ "model" : "search.station", "pk" : 78, "fields" : {"stationLong": "4.85388085612192", "stationLat": "45.7588154948925", "stationName": "Place du Lac", "stationNum": "3058", "stationRegion": "Lyon 3 \u00e8me"}},{ "model" : "search.station", "pk" : 79, "fields" : {"stationLong": "4.86346591659575", "stationLat": "45.7542631708599", "stationName": "Kimmerling / Faure", "stationNum": "3066", "stationRegion": "Lyon 3 \u00e8me"}},{ "model" : "search.station", "pk" : 80, "fields" : {"stationLong": "4.86396149382557", "stationLat": "45.7528916537812", "stationName": "Renoir", "stationNum": "3067", "stationRegion": "Lyon 3 \u00e8me"}},{ "model" : "search.station", "pk" : 81, "fields" : {"stationLong": "4.88808581013605", "stationLat": "45.7404830910259", "stationName": "BioParc", "stationNum": "3071", "stationRegion": "Lyon 3 \u00e8me"}},{ "model" : "search.station", "pk" : 82, "fields" : {"stationLong": "4.88482046365007", "stationLat": "45.7512052508819", "stationName": "Place Louise", "stationNum": "3079", "stationRegion": "Lyon 3 \u00e8me"}},{ "model" : "search.station", "pk" : 83, "fields" : {"stationLong": "4.86167388058994", "stationLat": "45.7600550578148", "stationName": "Gare Part Dieu Est", "stationNum": "3080", "stationRegion": "Lyon 3 \u00e8me"}},{ "model" : "search.station", "pk" : 84, "fields" : {"stationLong": "4.84510859535539", "stationLat": "45.7576229228584", "stationName": "Place Bahadourian", "stationNum": "3082", "stationRegion": "Lyon 3 \u00e8me"}},{ "model" : "search.station", "pk" : 85, "fields" : {"stationLong": "4.85048625739127", "stationLat": "45.7615189274364", "stationName": "Les Halles", "stationNum": "3083", "stationRegion": "Lyon 3 \u00e8me"}},{ "model" : "search.station", "pk" : 86, "fields" : {"stationLong": "4.85520085642282", "stationLat": "45.7572612599252", "stationName": "Desaix", "stationNum": "3084", "stationRegion": "Lyon 3 \u00e8me"}},{ "model" : "search.station", "pk" : 87, "fields" : {"stationLong": "4.86839504019714", "stationLat": "45.7578296698746", "stationName": "Sacr\u00e9 Coeur", "stationNum": "3085", "stationRegion": "Lyon 3 \u00e8me"}},{ "model" : "search.station", "pk" : 88, "fields" : {"stationLong": "4.87602199223534", "stationLat": "45.7495469577436", "stationName": "Feuillat/Lacassagne", "stationNum": "3086", "stationRegion": "Lyon 3 \u00e8me"}},{ "model" : "search.station", "pk" : 89, "fields" : {"stationLong": "4.85230976495791", "stationLat": "45.7627413113399", "stationName": "Part-Dieu / Deruelle / Garibaldi", "stationNum": "3087", "stationRegion": "Lyon 3 \u00e8me"}},{ "model" : "search.station", "pk" : 90, "fields" : {"stationLong": "4.84653860951144", "stationLat": "45.758825249533", "stationName": "Guichard / Mazenod", "stationNum": "3088", "stationRegion": "Lyon 3 \u00e8me"}},{ "model" : "search.station", "pk" : 91, "fields" : {"stationLong": "4.88896457239721", "stationLat": "45.7453145927334", "stationName": "Trarieux / Lacassagne", "stationNum": "3089", "stationRegion": "Lyon 3 \u00e8me"}},{ "model" : "search.station", "pk" : 92, "fields" : {"stationLong": "4.89349978098059", "stationLat": "45.7419202027106", "stationName": "Vinatier", "stationNum": "3090", "stationRegion": "Lyon 3 \u00e8me"}},{ "model" : "search.station", "pk" : 93, "fields" : {"stationLong": "4.896957057546", "stationLat": "45.7481832938432", "stationName": "H\u00f4pital Neurologique", "stationNum": "3091", "stationRegion": "Lyon 3 \u00e8me"}},{ "model" : "search.station", "pk" : 94, "fields" : {"stationLong": "4.86149658594011", "stationLat": "45.7577645564235", "stationName": "Villette/Paul Bert", "stationNum": "3094", "stationRegion": "Lyon 3 \u00e8me"}},{ "model" : "search.station", "pk" : 95, "fields" : {"stationLong": "4.84049913754249", "stationLat": "45.7571997023265", "stationName": "Augagneur", "stationNum": "3097", "stationRegion": "Lyon 3 \u00e8me"}},{ "model" : "search.station", "pk" : 96, "fields" : {"stationLong": "4.86544165919535", "stationLat": "45.7569549747275", "stationName": "Place Sainte Anne", "stationNum": "3099", "stationRegion": "Lyon 3 \u00e8me"}},{ "model" : "search.station", "pk" : 97, "fields" : {"stationLong": "4.8687997143612", "stationLat": "45.7528170009403", "stationName": "Sisley/Dauphin\u00e9", "stationNum": "3100", "stationRegion": "Lyon 3 \u00e8me"}},{ "model" : "search.station", "pk" : 98, "fields" : {"stationLong": "4.8685986853989", "stationLat": "45.7625116849545", "stationName": "Patinoire Baraban", "stationNum": "3101", "stationRegion": "Lyon 3 \u00e8me"}},{ "model" : "search.station", "pk" : 99, "fields" : {"stationLong": "4.8942587457506", "stationLat": "45.7525429085337", "stationName": "Dr Long / Caille", "stationNum": "3102", "stationRegion": "Lyon 3 \u00e8me"}},{ "model" : "search.station", "pk" : 100, "fields" : {"stationLong": "4.85754639852135", "stationLat": "45.7548339947211", "stationName": "Place Danton", "stationNum": "3103", "stationRegion": "Lyon 3 \u00e8me"}},{ "model" : "search.station", "pk" : 101, "fields" : {"stationLong": "4.81427562845422", "stationLat": "45.7704281355343", "stationName": "Conservatoire bis", "stationNum": "4001", "stationRegion": "Lyon 4 \u00e8me"}},{ "model" : "search.station", "pk" : 102, "fields" : {"stationLong": "4.82776522186418", "stationLat": "45.7742004407", "stationName": "Mairie du 4e", "stationNum": "4002", "stationRegion": "Lyon 4 \u00e8me"}},{ "model" : "search.station", "pk" : 103, "fields" : {"stationLong": "4.83478724840927", "stationLat": "45.779713209321", "stationName": "Place Cdt Arnaud", "stationNum": "4003", "stationRegion": "Lyon 4 \u00e8me"}},{ "model" : "search.station", "pk" : 104, "fields" : {"stationLong": "4.82763044255335", "stationLat": "45.7796855001293", "stationName": "H\u00e9non / Canuts", "stationNum": "4004", "stationRegion": "Lyon 4 \u00e8me"}},{ "model" : "search.station", "pk" : 105, "fields" : {"stationLong": "4.83445094477756", "stationLat": "45.7776153014649", "stationName": "Place Bertone", "stationNum": "4005", "stationRegion": "Lyon 4 \u00e8me"}},{ "model" : "search.station", "pk" : 106, "fields" : {"stationLong": "4.82131228469203", "stationLat": "45.7732936073872", "stationName": "IUFM", "stationNum": "4006", "stationRegion": "Lyon 4 \u00e8me"}},{ "model" : "search.station", "pk" : 107, "fields" : {"stationLong": "4.82024492913168", "stationLat": "45.7792901059158", "stationName": "Place Flammarion", "stationNum": "4007", "stationRegion": "Lyon 4 \u00e8me"}},{ "model" : "search.station", "pk" : 108, "fields" : {"stationLong": "4.8254218239837", "stationLat": "45.7759230179441", "stationName": "Jacquart / Denfer-Rochereau", "stationNum": "4009", "stationRegion": "Lyon 4 \u00e8me"}},{ "model" : "search.station", "pk" : 109, "fields" : {"stationLong": "4.8328399154362", "stationLat": "45.7814920298455", "stationName": "Place J. Ambre", "stationNum": "4011", "stationRegion": "Lyon 4 \u00e8me"}},{ "model" : "search.station", "pk" : 110, "fields" : {"stationLong": "4.84097162335524", "stationLat": "45.7791985052923", "stationName": "Place Adrien Godien", "stationNum": "4012", "stationRegion": "Lyon 4 \u00e8me"}},{ "model" : "search.station", "pk" : 111, "fields" : {"stationLong": "4.82049165189462", "stationLat": "45.7774098919917", "stationName": "Lasalle / Dangon", "stationNum": "4014", "stationRegion": "Lyon 4 \u00e8me"}},{ "model" : "search.station", "pk" : 112, "fields" : {"stationLong": "4.82947495889409", "stationLat": "45.7760929786525", "stationName": "Place des tapis", "stationNum": "4017", "stationRegion": "Lyon 4 \u00e8me"}},{ "model" : "search.station", "pk" : 113, "fields" : {"stationLong": "4.82519257109699", "stationLat": "45.7740460473114", "stationName": "Tabareau", "stationNum": "4021", "stationRegion": "Lyon 4 \u00e8me"}},{ "model" : "search.station", "pk" : 114, "fields" : {"stationLong": "4.83250103015313", "stationLat": "45.7760630269016", "stationName": "Place de la Croix-Rousse", "stationNum": "4022", "stationRegion": "Lyon 4 \u00e8me"}},{ "model" : "search.station", "pk" : 115, "fields" : {"stationLong": "4.81044280239092", "stationLat": "45.7778531496701", "stationName": "Pont Masaryk", "stationNum": "4023", "stationRegion": "Lyon 4 \u00e8me"}},{ "model" : "search.station", "pk" : 116, "fields" : {"stationLong": "4.81856028667253", "stationLat": "45.7881700188237", "stationName": "Lyon M\u00e9tropole", "stationNum": "4024", "stationRegion": "Lyon 4 \u00e8me"}},{ "model" : "search.station", "pk" : 117, "fields" : {"stationLong": "4.81787397185193", "stationLat": "45.7754396141737", "stationName": "Parc Cerisaie", "stationNum": "4025", "stationRegion": "Lyon 4 \u00e8me"}},{ "model" : "search.station", "pk" : 118, "fields" : {"stationLong": "4.81331428048711", "stationLat": "45.7746327347519", "stationName": "Birmingham", "stationNum": "4026", "stationRegion": "Lyon 4 \u00e8me"}},{ "model" : "search.station", "pk" : 119, "fields" : {"stationLong": "4.83506254529141", "stationLat": "45.7755023590486", "stationName": "Boussange/Austerlitz", "stationNum": "4041", "stationRegion": "Lyon 4 \u00e8me"}},{ "model" : "search.station", "pk" : 120, "fields" : {"stationLong": "4.82060004612759", "stationLat": "45.7817001067679", "stationName": "Stade Gr\u00e9gory Coupet", "stationNum": "4042", "stationRegion": "Lyon 4 \u00e8me"}},{ "model" : "search.station", "pk" : 121, "fields" : {"stationLong": "4.81530487624088", "stationLat": "45.7571957535012", "stationName": "Saint Just / Varillon", "stationNum": "5001", "stationRegion": "Lyon 5 \u00e8me"}},{ "model" : "search.station", "pk" : 122, "fields" : {"stationLong": "4.79661217888942", "stationLat": "45.7565273368784", "stationName": "Saint Just / Compagnon de la chanson", "stationNum": "5002", "stationRegion": "Lyon 5 \u00e8me"}},{ "model" : "search.station", "pk" : 123, "fields" : {"stationLong": "4.82656505039726", "stationLat": "45.7604837438978", "stationName": "Saint Jean / Cath\u00e9drale", "stationNum": "5004", "stationRegion": "Lyon 5 \u00e8me"}},{ "model" : "search.station", "pk" : 124, "fields" : {"stationLong": "4.82736282617114", "stationLat": "45.7662574761217", "stationName": "Gare Saint Paul", "stationNum": "5005", "stationRegion": "Lyon 5 \u00e8me"}},{ "model" : "search.station", "pk" : 125, "fields" : {"stationLong": "4.82888968245804", "stationLat": "45.7620370806927", "stationName": "Saint Jean / Palais de Justice", "stationNum": "5006", "stationRegion": "Lyon 5 \u00e8me"}},{ "model" : "search.station", "pk" : 126, "fields" : {"stationLong": "4.81318555184573", "stationLat": "45.7579264314233", "stationName": "Place de Trion", "stationNum": "5007", "stationRegion": "Lyon 5 \u00e8me"}},{ "model" : "search.station", "pk" : 127, "fields" : {"stationLong": "4.81272720953072", "stationLat": "45.7554367590946", "stationName": "Place Sainte Ir\u00e9n\u00e9e", "stationNum": "5008", "stationRegion": "Lyon 5 \u00e8me"}},{ "model" : "search.station", "pk" : 128, "fields" : {"stationLong": "4.82894479885894", "stationLat": "45.764685782659", "stationName": "Place Fousseret", "stationNum": "5009", "stationRegion": "Lyon 5 \u00e8me"}},{ "model" : "search.station", "pk" : 129, "fields" : {"stationLong": "4.82166179835163", "stationLat": "45.7520011769433", "stationName": "Fulchiron / Choulans", "stationNum": "5015", "stationRegion": "Lyon 5 \u00e8me"}},{ "model" : "search.station", "pk" : 130, "fields" : {"stationLong": "4.80096231123926", "stationLat": "45.7575651628799", "stationName": "Mairie du 5e", "stationNum": "5016", "stationRegion": "Lyon 5 \u00e8me"}},{ "model" : "search.station", "pk" : 131, "fields" : {"stationLong": "4.82904044151992", "stationLat": "45.7633758464824", "stationName": "Saint Jean / Rue de la Baleine", "stationNum": "5026", "stationRegion": "Lyon 5 \u00e8me"}},{ "model" : "search.station", "pk" : 132, "fields" : {"stationLong": "4.82698432330627", "stationLat": "45.7670444714525", "stationName": "Saint Paul / Place Gerson", "stationNum": "5029", "stationRegion": "Lyon 5 \u00e8me"}},{ "model" : "search.station", "pk" : 133, "fields" : {"stationLong": "4.80737276926982", "stationLat": "45.7547981963809", "stationName": "Charcot / R\u00e9sidence universitaire", "stationNum": "5030", "stationRegion": "Lyon 5 \u00e8me"}},{ "model" : "search.station", "pk" : 134, "fields" : {"stationLong": "4.78820051195654", "stationLat": "45.7546470827688", "stationName": "M\u00e9nival/Curie", "stationNum": "5031", "stationRegion": "Lyon 5 \u00e8me"}},{ "model" : "search.station", "pk" : 135, "fields" : {"stationLong": "4.79561061526967", "stationLat": "45.7496868148719", "stationName": "La Salette", "stationNum": "5036", "stationRegion": "Lyon 5 \u00e8me"}},{ "model" : "search.station", "pk" : 136, "fields" : {"stationLong": "4.82622334799577", "stationLat": "45.757874600776", "stationName": "Place Cr\u00e9pu", "stationNum": "5040", "stationRegion": "Lyon 5 \u00e8me"}},{ "model" : "search.station", "pk" : 137, "fields" : {"stationLong": "4.82000954031777", "stationLat": "45.7665530356549", "stationName": "L'Homme de la Roche", "stationNum": "5041", "stationRegion": "Lyon 5 \u00e8me"}},{ "model" : "search.station", "pk" : 138, "fields" : {"stationLong": "4.79662676491689", "stationLat": "45.759797191694", "stationName": "Champvert", "stationNum": "5044", "stationRegion": "Lyon 5 \u00e8me"}},{ "model" : "search.station", "pk" : 139, "fields" : {"stationLong": "4.78877412110312", "stationLat": "45.750481483431", "stationName": "Valdo/Jeunet", "stationNum": "5045", "stationRegion": "Lyon 5 \u00e8me"}},{ "model" : "search.station", "pk" : 140, "fields" : {"stationLong": "4.80445892719369", "stationLat": "45.7534421942217", "stationName": "Charcot / Alb\u00e9ric Po", "stationNum": "5047", "stationRegion": "Lyon 5 \u00e8me"}},{ "model" : "search.station", "pk" : 141, "fields" : {"stationLong": "4.82108664154825", "stationLat": "45.7583623960293", "stationName": "Th\u00e9\u00e2tres Romains", "stationNum": "5050", "stationRegion": "Lyon 5 \u00e8me"}},{ "model" : "search.station", "pk" : 142, "fields" : {"stationLong": "4.81931449775085", "stationLat": "45.756082553797", "stationName": "St Just", "stationNum": "5053", "stationRegion": "Lyon 5 \u00e8me"}},{ "model" : "search.station", "pk" : 143, "fields" : {"stationLong": "4.79271430810799", "stationLat": "45.7638977674248", "stationName": "Champvert", "stationNum": "5054", "stationRegion": "Lyon 5 \u00e8me"}},{ "model" : "search.station", "pk" : 144, "fields" : {"stationLong": "4.80306139722826", "stationLat": "45.7617986194848", "stationName": "Apollinaire/Buyer", "stationNum": "5055", "stationRegion": "Lyon 5 \u00e8me"}},{ "model" : "search.station", "pk" : 145, "fields" : {"stationLong": "4.85897382063673", "stationLat": "45.7668552367471", "stationName": "Gare des Brotteaux", "stationNum": "6001", "stationRegion": "Lyon 6 \u00e8me"}},{ "model" : "search.station", "pk" : 146, "fields" : {"stationLong": "4.84488125913851", "stationLat": "45.7773793166442", "stationName": "Parc T\u00eate d'Or / Enfants du Rh\u00f4ne", "stationNum": "6002", "stationRegion": "Lyon 6 \u00e8me"}},{ "model" : "search.station", "pk" : 147, "fields" : {"stationLong": "4.85632678135882", "stationLat": "45.7729113974483", "stationName": "Parc T\u00eate d'Or / Lyc\u00e9e du Parc", "stationNum": "6003", "stationRegion": "Lyon 6 \u00e8me"}},{ "model" : "search.station", "pk" : 148, "fields" : {"stationLong": "4.84476493884258", "stationLat": "45.7688513697594", "stationName": "Foch / Roosevelt", "stationNum": "6004", "stationRegion": "Lyon 6 \u00e8me"}},{ "model" : "search.station", "pk" : 149, "fields" : {"stationLong": "4.84473189285044", "stationLat": "45.7657655924629", "stationName": "Place Edgar Quinet", "stationNum": "6005", "stationRegion": "Lyon 6 \u00e8me"}},{ "model" : "search.station", "pk" : 150, "fields" : {"stationLong": "4.85183018012134", "stationLat": "45.7733195111248", "stationName": "Boulevard des Belges", "stationNum": "6006", "stationRegion": "Lyon 6 \u00e8me"}},{ "model" : "search.station", "pk" : 151, "fields" : {"stationLong": "4.85237314700451", "stationLat": "45.7696604862812", "stationName": "Mass\u00e9na / Roosevelt", "stationNum": "6007", "stationRegion": "Lyon 6 \u00e8me"}},{ "model" : "search.station", "pk" : 152, "fields" : {"stationLong": "4.85907055673834", "stationLat": "45.7684122613765", "stationName": "Brotteaux", "stationNum": "6008", "stationRegion": "Lyon 6 \u00e8me"}},{ "model" : "search.station", "pk" : 153, "fields" : {"stationLong": "4.8494994527405", "stationLat": "45.7683990532862", "stationName": "Mairie du 6e", "stationNum": "6011", "stationRegion": "Lyon 6 \u00e8me"}},{ "model" : "search.station", "pk" : 154, "fields" : {"stationLong": "4.84460363574836", "stationLat": "45.7717570855734", "stationName": "Place Puvis de Chavannes", "stationNum": "6012", "stationRegion": "Lyon 6 \u00e8me"}},{ "model" : "search.station", "pk" : 155, "fields" : {"stationLong": "4.86209227820075", "stationLat": "45.7659879833824", "stationName": "Viabert / Avenue Thiers", "stationNum": "6016", "stationRegion": "Lyon 6 \u00e8me"}},{ "model" : "search.station", "pk" : 156, "fields" : {"stationLong": "4.84838234596466", "stationLat": "45.7745269721979", "stationName": "Bd des Belges / Museum", "stationNum": "6020", "stationRegion": "Lyon 6 \u00e8me"}},{ "model" : "search.station", "pk" : 157, "fields" : {"stationLong": "4.84997134280348", "stationLat": "45.770856268343", "stationName": "Sully / Garibaldi", "stationNum": "6021", "stationRegion": "Lyon 6 \u00e8me"}},{ "model" : "search.station", "pk" : 158, "fields" : {"stationLong": "4.842416784717", "stationLat": "45.7693820661356", "stationName": "Place Mar\u00e9chal Lyautey", "stationNum": "6022", "stationRegion": "Lyon 6 \u00e8me"}},{ "model" : "search.station", "pk" : 159, "fields" : {"stationLong": "4.84113933935133", "stationLat": "45.7668296196243", "stationName": "Liautey / Sarrail", "stationNum": "6023", "stationRegion": "Lyon 6 \u00e8me"}},{ "model" : "search.station", "pk" : 160, "fields" : {"stationLong": "4.85677966747709", "stationLat": "45.770732560549", "stationName": "Tronchet / Anatole France", "stationNum": "6024", "stationRegion": "Lyon 6 \u00e8me"}},{ "model" : "search.station", "pk" : 161, "fields" : {"stationLong": "4.8534921297062", "stationLat": "45.7643336975612", "stationName": "R\u00e9camier / T\u00eate d'Or", "stationNum": "6028", "stationRegion": "Lyon 6 \u00e8me"}},{ "model" : "search.station", "pk" : 162, "fields" : {"stationLong": "4.8437425783907", "stationLat": "45.7637499956122", "stationName": "Lafayette /Corneille", "stationNum": "6031", "stationRegion": "Lyon 6 \u00e8me"}},{ "model" : "search.station", "pk" : 163, "fields" : {"stationLong": "4.84156547149102", "stationLat": "45.7648582723532", "stationName": "Sarrail / Vauban", "stationNum": "6032", "stationRegion": "Lyon 6 \u00e8me"}},{ "model" : "search.station", "pk" : 164, "fields" : {"stationLong": "4.85412407271076", "stationLat": "45.7854214249624", "stationName": "Cit\u00e9 Int. / Palais des Congr\u00e8s", "stationNum": "6035", "stationRegion": "Lyon 6 \u00e8me"}},{ "model" : "search.station", "pk" : 165, "fields" : {"stationLong": "4.8521404034164", "stationLat": "45.7838816142831", "stationName": "Cit\u00e9 Int. / Mus\u00e9e d'art contemporain", "stationNum": "6036", "stationRegion": "Lyon 6 \u00e8me"}},{ "model" : "search.station", "pk" : 166, "fields" : {"stationLong": "4.84934398081673", "stationLat": "45.7823061128328", "stationName": "Cit\u00e9 Int. / Interpol", "stationNum": "6037", "stationRegion": "Lyon 6 \u00e8me"}},{ "model" : "search.station", "pk" : 167, "fields" : {"stationLong": "4.84993054607575", "stationLat": "45.7640576127189", "stationName": "Place de l'Europe", "stationNum": "6040", "stationRegion": "Lyon 6 \u00e8me"}},{ "model" : "search.station", "pk" : 168, "fields" : {"stationLong": "4.85963914713868", "stationLat": "45.7846110498866", "stationName": "Cit\u00e9 Internationale - T\u00eate d'Or nord", "stationNum": "6041", "stationRegion": "Lyon 6 \u00e8me"}},{ "model" : "search.station", "pk" : 169, "fields" : {"stationLong": "4.85561542792082", "stationLat": "45.7848557405431", "stationName": "Cit\u00e9 Internationale - R\u00e9sidence", "stationNum": "6042", "stationRegion": "Lyon 6 \u00e8me"}},{ "model" : "search.station", "pk" : 170, "fields" : {"stationLong": "4.852215476118", "stationLat": "45.7847362580234", "stationName": "Cit\u00e9 Internationale - Cin\u00e9ma", "stationNum": "6043", "stationRegion": "Lyon 6 \u00e8me"}},{ "model" : "search.station", "pk" : 171, "fields" : {"stationLong": "4.86508416387106", "stationLat": "45.7663703493176", "stationName": "Charmettes - Bellecombe", "stationNum": "6044", "stationRegion": "Lyon 6 \u00e8me"}},{ "model" : "search.station", "pk" : 172, "fields" : {"stationLong": "4.85683338586512", "stationLat": "45.7662960771169", "stationName": "Place Juliette R\u00e9camier", "stationNum": "6045", "stationRegion": "Lyon 6 \u00e8me"}},{ "model" : "search.station", "pk" : 173, "fields" : {"stationLong": "4.8437386077807", "stationLat": "45.7548668914179", "stationName": "Place Gabriel P\u00e9ri", "stationNum": "7001", "stationRegion": "Lyon 7 \u00e8me"}},{ "model" : "search.station", "pk" : 174, "fields" : {"stationLong": "4.83635351449888", "stationLat": "45.7513315688755", "stationName": "Universit\u00e9s Claude Bernard", "stationNum": "7002", "stationRegion": "Lyon 7 \u00e8me"}},{ "model" : "search.station", "pk" : 175, "fields" : {"stationLong": "4.85253471280619", "stationLat": "45.7518022143478", "stationName": "Gambetta / Garibaldi", "stationNum": "7003", "stationRegion": "Lyon 7 \u00e8me"}},{ "model" : "search.station", "pk" : 176, "fields" : {"stationLong": "4.84197575546566", "stationLat": "45.7462059798812", "stationName": "Place Jean Mac\u00e9", "stationNum": "7004", "stationRegion": "Lyon 7 \u00e8me"}},{ "model" : "search.station", "pk" : 177, "fields" : {"stationLong": "4.83391613003068", "stationLat": "45.7316777209813", "stationName": "Debourg / Jean Jaur\u00e8s", "stationNum": "7005", "stationRegion": "Lyon 7 \u00e8me"}},{ "model" : "search.station", "pk" : 178, "fields" : {"stationLong": "4.83104413042237", "stationLat": "45.7271794828792", "stationName": "Gerland / Square Galtier", "stationNum": "7006", "stationRegion": "Lyon 7 \u00e8me"}},{ "model" : "search.station", "pk" : 179, "fields" : {"stationLong": "4.82771915596122", "stationLat": "45.7356738897812", "stationName": "Ayasse/Farge", "stationNum": "7007", "stationRegion": "Lyon 7 \u00e8me"}},{ "model" : "search.station", "pk" : 180, "fields" : {"stationLong": "4.84636322005333", "stationLat": "45.7525730643619", "stationName": "Jean Jaur\u00e8s / Guilloti\u00e8re", "stationNum": "7008", "stationRegion": "Lyon 7 \u00e8me"}},{ "model" : "search.station", "pk" : 181, "fields" : {"stationLong": "4.83758552177112", "stationLat": "45.7377948262607", "stationName": "Jean Jaur\u00e8s / M\u00e9tro", "stationNum": "7009", "stationRegion": "Lyon 7 \u00e8me"}},{ "model" : "search.station", "pk" : 182, "fields" : {"stationLong": "4.83604918965423", "stationLat": "45.7473577623064", "stationName": "Berthelot / Pasteur", "stationNum": "7010", "stationRegion": "Lyon 7 \u00e8me"}},{ "model" : "search.station", "pk" : 183, "fields" : {"stationLong": "4.84727526799871", "stationLat": "45.7437195253427", "stationName": "Berthelot / Garibaldi", "stationNum": "7011", "stationRegion": "Lyon 7 \u00e8me"}},{ "model" : "search.station", "pk" : 184, "fields" : {"stationLong": "4.82969004216113", "stationLat": "45.7295009904289", "stationName": "Place des Pavillons", "stationNum": "7012", "stationRegion": "Lyon 7 \u00e8me"}},{ "model" : "search.station", "pk" : 185, "fields" : {"stationLong": "4.82393218241695", "stationLat": "45.7312497807651", "stationName": "Halle Tony Garnier", "stationNum": "7013", "stationRegion": "Lyon 7 \u00e8me"}},{ "model" : "search.station", "pk" : 186, "fields" : {"stationLong": "4.84137796431903", "stationLat": "45.7530098082402", "stationName": "Marseille / Saint Andr\u00e9", "stationNum": "7014", "stationRegion": "Lyon 7 \u00e8me"}},{ "model" : "search.station", "pk" : 187, "fields" : {"stationLong": "4.84757482442318", "stationLat": "45.748799939274", "stationName": "Place Saint Louis", "stationNum": "7016", "stationRegion": "Lyon 7 \u00e8me"}},{ "model" : "search.station", "pk" : 188, "fields" : {"stationLong": "4.8321092446089", "stationLat": "45.7402591901399", "stationName": "Lyc\u00e9e Labb\u00e9", "stationNum": "7018", "stationRegion": "Lyon 7 \u00e8me"}},{ "model" : "search.station", "pk" : 189, "fields" : {"stationLong": "4.82713062819213", "stationLat": "45.7240933491196", "stationName": "Parc de Gerland", "stationNum": "7020", "stationRegion": "Lyon 7 \u00e8me"}},{ "model" : "search.station", "pk" : 190, "fields" : {"stationLong": "4.83813843834042", "stationLat": "45.7298058652088", "stationName": "Rue de Gerland / Challemel Lacour", "stationNum": "7021", "stationRegion": "Lyon 7 \u00e8me"}},{ "model" : "search.station", "pk" : 191, "fields" : {"stationLong": "4.84152208930028", "stationLat": "45.7439256046218", "stationName": "Jaur\u00e8s/Lagrange", "stationNum": "7022", "stationRegion": "Lyon 7 \u00e8me"}},{ "model" : "search.station", "pk" : 192, "fields" : {"stationLong": "4.85053697145967", "stationLat": "45.7426537617283", "stationName": "Berthelot / Route de Vienne", "stationNum": "7023", "stationRegion": "Lyon 7 \u00e8me"}},{ "model" : "search.station", "pk" : 193, "fields" : {"stationLong": "4.84052316511319", "stationLat": "45.7485188802541", "stationName": "Chevreul / Gryphe", "stationNum": "7024", "stationRegion": "Lyon 7 \u00e8me"}},{ "model" : "search.station", "pk" : 194, "fields" : {"stationLong": "4.83425102400814", "stationLat": "45.7432217977239", "stationName": "QGF", "stationNum": "7030", "stationRegion": "Lyon 7 \u00e8me"}},{ "model" : "search.station", "pk" : 195, "fields" : {"stationLong": "4.84030738862286", "stationLat": "45.7398132348897", "stationName": "Jaur\u00e8s/Gerland", "stationNum": "7031", "stationRegion": "Lyon 7 \u00e8me"}},{ "model" : "search.station", "pk" : 196, "fields" : {"stationLong": "4.83475200471111", "stationLat": "45.7494176952947", "stationName": "H\u00f4pital St Luc - St Joseph", "stationNum": "7033", "stationRegion": "Lyon 7 \u00e8me"}},{ "model" : "search.station", "pk" : 197, "fields" : {"stationLong": "4.8383205814919", "stationLat": "45.7537090611124", "stationName": "Piscine du Rh\u00f4ne", "stationNum": "7034", "stationRegion": "Lyon 7 \u00e8me"}},{ "model" : "search.station", "pk" : 198, "fields" : {"stationLong": "4.83936546384035", "stationLat": "45.7509333904299", "stationName": "Marseille / Universit\u00e9", "stationNum": "7035", "stationRegion": "Lyon 7 \u00e8me"}},{ "model" : "search.station", "pk" : 199, "fields" : {"stationLong": "4.85294425479412", "stationLat": "45.7495553441339", "stationName": "Place de Stalingard", "stationNum": "7038", "stationRegion": "Lyon 7 \u00e8me"}},{ "model" : "search.station", "pk" : 200, "fields" : {"stationLong": "4.84804076774484", "stationLat": "45.7510366647249", "stationName": "Guilloti\u00e8re / Madeleine", "stationNum": "7039", "stationRegion": "Lyon 7 \u00e8me"}},{ "model" : "search.station", "pk" : 201, "fields" : {"stationLong": "4.84448236134229", "stationLat": "45.7466859287141", "stationName": "MJC du 7e", "stationNum": "7041", "stationRegion": "Lyon 7 \u00e8me"}},{ "model" : "search.station", "pk" : 202, "fields" : {"stationLong": "4.8244878801967", "stationLat": "45.7377520986814", "stationName": "Parc des Berges", "stationNum": "7045", "stationRegion": "Lyon 7 \u00e8me"}},{ "model" : "search.station", "pk" : 203, "fields" : {"stationLong": "4.82779325589658", "stationLat": "45.730080394459", "stationName": "Place de l'Ecole", "stationNum": "7046", "stationRegion": "Lyon 7 \u00e8me"}},{ "model" : "search.station", "pk" : 204, "fields" : {"stationLong": "4.82355874268127", "stationLat": "45.7279604510332", "stationName": "Cit\u00e9 Scolaire Internationale", "stationNum": "7049", "stationRegion": "Lyon 7 \u00e8me"}},{ "model" : "search.station", "pk" : 205, "fields" : {"stationLong": "4.85118994206162", "stationLat": "45.7459623999943", "stationName": "Parc Blandan", "stationNum": "7052", "stationRegion": "Lyon 7 \u00e8me"}},{ "model" : "search.station", "pk" : 206, "fields" : {"stationLong": "4.84519252016435", "stationLat": "45.7502638736915", "stationName": "Jaur\u00e8s/Thibaudi\u00e8re", "stationNum": "7053", "stationRegion": "Lyon 7 \u00e8me"}},{ "model" : "search.station", "pk" : 207, "fields" : {"stationLong": "4.84201296191759", "stationLat": "45.7467590796927", "stationName": "Servant / Jaboulay", "stationNum": "7055", "stationRegion": "Lyon 7 \u00e8me"}},{ "model" : "search.station", "pk" : 208, "fields" : {"stationLong": "4.84069536038571", "stationLat": "45.7557568966743", "stationName": "Place Raspail", "stationNum": "7056", "stationRegion": "Lyon 7 \u00e8me"}},{ "model" : "search.station", "pk" : 209, "fields" : {"stationLong": "4.83545738244912", "stationLat": "45.7346818429149", "stationName": "Jaur\u00e8s / Bollier", "stationNum": "7057", "stationRegion": "Lyon 7 \u00e8me"}},{ "model" : "search.station", "pk" : 210, "fields" : {"stationLong": "4.84323794810386", "stationLat": "45.7485428567164", "stationName": "Jaur\u00e8s / Universit\u00e9", "stationNum": "7061", "stationRegion": "Lyon 7 \u00e8me"}},{ "model" : "search.station", "pk" : 211, "fields" : {"stationLong": "4.85159792893307", "stationLat": "45.7477270248659", "stationName": "Garibaldi / Domer", "stationNum": "7062", "stationRegion": "Lyon 7 \u00e8me"}},{ "model" : "search.station", "pk" : 212, "fields" : {"stationLong": "4.84785882965487", "stationLat": "45.7453992340993", "stationName": "CROUS", "stationNum": "7064", "stationRegion": "Lyon 7 \u00e8me"}},{ "model" : "search.station", "pk" : 213, "fields" : {"stationLong": "4.86154177936425", "stationLat": "45.7485395662599", "stationName": "Universit\u00e9 Lyon III", "stationNum": "8001", "stationRegion": "Lyon 8 \u00e8me"}},{ "model" : "search.station", "pk" : 214, "fields" : {"stationLong": "4.8715895663215", "stationLat": "45.7453344566132", "stationName": "Place Ambroise Courtois", "stationNum": "8002", "stationRegion": "Lyon 8 \u00e8me"}},{ "model" : "search.station", "pk" : 215, "fields" : {"stationLong": "4.88688030871153", "stationLat": "45.7381400560295", "stationName": "La\u00ebnnec", "stationNum": "8003", "stationRegion": "Lyon 8 \u00e8me"}},{ "model" : "search.station", "pk" : 216, "fields" : {"stationLong": "4.87269682370274", "stationLat": "45.7352063234863", "stationName": "Mairie 8e", "stationNum": "8004", "stationRegion": "Lyon 8 \u00e8me"}},{ "model" : "search.station", "pk" : 217, "fields" : {"stationLong": "4.86828425933323", "stationLat": "45.7297456005848", "stationName": "Place 8 mai 1945", "stationNum": "8006", "stationRegion": "Lyon 8 \u00e8me"}},{ "model" : "search.station", "pk" : 218, "fields" : {"stationLong": "4.86645231726683", "stationLat": "45.7450174320832", "stationName": "Rue des Fr\u00e8res Lumi\u00e8re", "stationNum": "8007", "stationRegion": "Lyon 8 \u00e8me"}},{ "model" : "search.station", "pk" : 219, "fields" : {"stationLong": "4.86351759043934", "stationLat": "45.7278885457128", "stationName": "Beauvisage / Pr\u00e9ssens\u00e9 / Viviani", "stationNum": "8008", "stationRegion": "Lyon 8 \u00e8me"}},{ "model" : "search.station", "pk" : 220, "fields" : {"stationLong": "4.86991609151009", "stationLat": "45.7365749445623", "stationName": "Place 11 novembre 1918", "stationNum": "8009", "stationRegion": "Lyon 8 \u00e8me"}},{ "model" : "search.station", "pk" : 221, "fields" : {"stationLong": "4.8595210870363", "stationLat": "45.7399270587135", "stationName": "Place Mend\u00e8s France", "stationNum": "8010", "stationRegion": "Lyon 8 \u00e8me"}},{ "model" : "search.station", "pk" : 222, "fields" : {"stationLong": "4.85299655686574", "stationLat": "45.7356139906482", "stationName": "Place Lebret", "stationNum": "8011", "stationRegion": "Lyon 8 \u00e8me"}},{ "model" : "search.station", "pk" : 223, "fields" : {"stationLong": "4.87418528175002", "stationLat": "45.7403016013987", "stationName": "Bd Jean XXIII", "stationNum": "8015", "stationRegion": "Lyon 8 \u00e8me"}},{ "model" : "search.station", "pk" : 224, "fields" : {"stationLong": "4.85396375719057", "stationLat": "45.7297266956309", "stationName": "Moulin \u00e0 Vent", "stationNum": "8020", "stationRegion": "Lyon 8 \u00e8me"}},{ "model" : "search.station", "pk" : 225, "fields" : {"stationLong": "4.87762123928819", "stationLat": "45.7282814065156", "stationName": "Place G\u00e9n\u00e9ral Andr\u00e9", "stationNum": "8021", "stationRegion": "Lyon 8 \u00e8me"}},{ "model" : "search.station", "pk" : 226, "fields" : {"stationLong": "4.87863205916919", "stationLat": "45.7332373891914", "stationName": "Mermoz / Michelet", "stationNum": "8024", "stationRegion": "Lyon 8 \u00e8me"}},{ "model" : "search.station", "pk" : 227, "fields" : {"stationLong": "4.86099377367911", "stationLat": "45.7444606289943", "stationName": "Santos Dumont / Louis Jouvet", "stationNum": "8025", "stationRegion": "Lyon 8 \u00e8me"}},{ "model" : "search.station", "pk" : 228, "fields" : {"stationLong": "4.86514153673672", "stationLat": "45.7322180106597", "stationName": "Etats Unis / L\u00e9vigne", "stationNum": "8029", "stationRegion": "Lyon 8 \u00e8me"}},{ "model" : "search.station", "pk" : 229, "fields" : {"stationLong": "4.87973693061656", "stationLat": "45.7413737377966", "stationName": "Laennec / Facult\u00e9s", "stationNum": "8030", "stationRegion": "Lyon 8 \u00e8me"}},{ "model" : "search.station", "pk" : 230, "fields" : {"stationLong": "4.86275914192345", "stationLat": "45.7382839528846", "stationName": "Berthelot / Villon", "stationNum": "8034", "stationRegion": "Lyon 8 \u00e8me"}},{ "model" : "search.station", "pk" : 231, "fields" : {"stationLong": "4.86528578303152", "stationLat": "45.7472487338215", "stationName": "Sans Souci", "stationNum": "8035", "stationRegion": "Lyon 8 \u00e8me"}},{ "model" : "search.station", "pk" : 232, "fields" : {"stationLong": "4.86290448888407", "stationLat": "45.7340324956484", "stationName": "Cazeneuve", "stationNum": "8037", "stationRegion": "Lyon 8 \u00e8me"}},{ "model" : "search.station", "pk" : 233, "fields" : {"stationLong": "4.86728334680193", "stationLat": "45.7467702121095", "stationName": "Albert Thomas / Villon", "stationNum": "8038", "stationRegion": "Lyon 8 \u00e8me"}},{ "model" : "search.station", "pk" : 234, "fields" : {"stationLong": "4.85228601094152", "stationLat": "45.738741092342", "stationName": "Pierre Delore", "stationNum": "8039", "stationRegion": "Lyon 8 \u00e8me"}},{ "model" : "search.station", "pk" : 235, "fields" : {"stationLong": "4.88373682621306", "stationLat": "45.7362404944941", "stationName": "Ambroise Par\u00e9", "stationNum": "8040", "stationRegion": "Lyon 8 \u00e8me"}},{ "model" : "search.station", "pk" : 236, "fields" : {"stationLong": "4.87083165476878", "stationLat": "45.724716265505", "stationName": "Etats-Unis Viviani", "stationNum": "8041", "stationRegion": "Lyon 8 \u00e8me"}},{ "model" : "search.station", "pk" : 237, "fields" : {"stationLong": "4.86026581633304", "stationLat": "45.7314687851879", "stationName": "Francis de Pressenss\u00e9", "stationNum": "8042", "stationRegion": "Lyon 8 \u00e8me"}},{ "model" : "search.station", "pk" : 238, "fields" : {"stationLong": "4.85415212712752", "stationLat": "45.7242705028889", "stationName": "H\u00f4pital St-Jean de Dieu", "stationNum": "8051", "stationRegion": "VENISSIEUX"}},{ "model" : "search.station", "pk" : 239, "fields" : {"stationLong": "4.8601437036179", "stationLat": "45.7470967140947", "stationName": "Montplaisir", "stationNum": "8052", "stationRegion": "Lyon 8 \u00e8me"}},{ "model" : "search.station", "pk" : 240, "fields" : {"stationLong": "4.87010596914173", "stationLat": "45.7435720690503", "stationName": "Lumi\u00e8re/Trouilhet", "stationNum": "8053", "stationRegion": "Lyon 8 \u00e8me"}},{ "model" : "search.station", "pk" : 241, "fields" : {"stationLong": "4.86820654517699", "stationLat": "45.7408472643868", "stationName": "Martini\u00e8re Monplaisir", "stationNum": "8054", "stationRegion": "Lyon 8 \u00e8me"}},{ "model" : "search.station", "pk" : 242, "fields" : {"stationLong": "4.8568128186712", "stationLat": "45.7357952320593", "stationName": "Delore / Audibert & Lavirotte", "stationNum": "8056", "stationRegion": "Lyon 8 \u00e8me"}},{ "model" : "search.station", "pk" : 243, "fields" : {"stationLong": "4.8534202156019", "stationLat": "45.7323603634356", "stationName": "Vienne  / Montagny", "stationNum": "8057", "stationRegion": "Lyon 8 \u00e8me"}},{ "model" : "search.station", "pk" : 244, "fields" : {"stationLong": "4.87813090555283", "stationLat": "45.7386678839509", "stationName": "Longefer / Kruger", "stationNum": "8058", "stationRegion": "Lyon 8 \u00e8me"}},{ "model" : "search.station", "pk" : 245, "fields" : {"stationLong": "4.88958397628118", "stationLat": "45.735346022546", "stationName": "Laennec/Pinel", "stationNum": "8059", "stationRegion": "Lyon 8 \u00e8me"}},{ "model" : "search.station", "pk" : 246, "fields" : {"stationLong": "4.87424491377512", "stationLat": "45.731756154042", "stationName": "Santy / Beauvisage", "stationNum": "8060", "stationRegion": "Lyon 8 \u00e8me"}},{ "model" : "search.station", "pk" : 247, "fields" : {"stationLong": "4.88141900631866", "stationLat": "45.7253335569204", "stationName": "Stade Vuillermet", "stationNum": "8061", "stationRegion": "Lyon 8 \u00e8me"}},{ "model" : "search.station", "pk" : 248, "fields" : {"stationLong": "4.80566601141478", "stationLat": "45.7742408280788", "stationName": "Place du March\u00e9", "stationNum": "9002", "stationRegion": "Lyon 9 \u00e8me"}},{ "model" : "search.station", "pk" : 249, "fields" : {"stationLong": "4.80531798091198", "stationLat": "45.7756418294443", "stationName": "place Valmy", "stationNum": "9003", "stationRegion": "Lyon 9 \u00e8me"}},{ "model" : "search.station", "pk" : 250, "fields" : {"stationLong": "4.80456661725123", "stationLat": "45.7797436570845", "stationName": "Gare de Vaise", "stationNum": "9004", "stationRegion": "Lyon 9 \u00e8me"}},{ "model" : "search.station", "pk" : 251, "fields" : {"stationLong": "4.80334845333492", "stationLat": "45.777207192996", "stationName": "Th\u00e9\u00e2tre Nouvelle G\u00e9n\u00e9ration", "stationNum": "9006", "stationRegion": "Lyon 9 \u00e8me"}},{ "model" : "search.station", "pk" : 252, "fields" : {"stationLong": "4.82908444349794", "stationLat": "45.7973912412806", "stationName": "St Rambert - Ile Barbe", "stationNum": "9008", "stationRegion": "Lyon 9 \u00e8me"}},{ "model" : "search.station", "pk" : 253, "fields" : {"stationLong": "4.79654028918423", "stationLat": "45.770941031065", "stationName": "Piscine de Vaise", "stationNum": "9010", "stationRegion": "Lyon 9 \u00e8me"}},{ "model" : "search.station", "pk" : 254, "fields" : {"stationLong": "4.8126762195854", "stationLat": "45.7697822121574", "stationName": "Conservatoire", "stationNum": "9011", "stationRegion": "Lyon 9 \u00e8me"}},{ "model" : "search.station", "pk" : 255, "fields" : {"stationLong": "4.81437377940006", "stationLat": "45.7873840849558", "stationName": "S\u00e9daillan / Naviguation", "stationNum": "9013", "stationRegion": "Lyon 9 \u00e8me"}},{ "model" : "search.station", "pk" : 256, "fields" : {"stationLong": "4.81143304483125", "stationLat": "45.7833410356924", "stationName": "Saint-Cyr / Mouillard", "stationNum": "9014", "stationRegion": "Lyon 9 \u00e8me"}},{ "model" : "search.station", "pk" : 257, "fields" : {"stationLong": "4.80035245952592", "stationLat": "45.7734583979462", "stationName": "Masset / 3 septembre 1944", "stationNum": "9020", "stationRegion": "Lyon 9 \u00e8me"}},{ "model" : "search.station", "pk" : 258, "fields" : {"stationLong": "4.80704036653684", "stationLat": "45.7785542406456", "stationName": "Masaryk / Saint Cyr", "stationNum": "9022", "stationRegion": "Lyon 9 \u00e8me"}},{ "model" : "search.station", "pk" : 259, "fields" : {"stationLong": "4.80781372226459", "stationLat": "45.7730995725331", "stationName": "Saint Pierre de Vaise", "stationNum": "9029", "stationRegion": "Lyon 9 \u00e8me"}},{ "model" : "search.station", "pk" : 260, "fields" : {"stationLong": "4.80950447440039", "stationLat": "45.7738337453507", "stationName": "Place Port Mouton", "stationNum": "9032", "stationRegion": "Lyon 9 \u00e8me"}},{ "model" : "search.station", "pk" : 261, "fields" : {"stationLong": "4.80564028018344", "stationLat": "45.7673562652624", "stationName": "Gorge de Loup", "stationNum": "9033", "stationRegion": "Lyon 9 \u00e8me"}},{ "model" : "search.station", "pk" : 262, "fields" : {"stationLong": "4.80761289327132", "stationLat": "45.771005567626", "stationName": "Place Rhodiaceta", "stationNum": "9040", "stationRegion": "Lyon 9 \u00e8me"}},{ "model" : "search.station", "pk" : 263, "fields" : {"stationLong": "4.82063516798459", "stationLat": "45.7925672653458", "stationName": "Carret / S\u00e9daillan", "stationNum": "9041", "stationRegion": "Lyon 9 \u00e8me"}},{ "model" : "search.station", "pk" : 264, "fields" : {"stationLong": "4.81144121742037", "stationLat": "45.786508444362", "stationName": "Rochecardon", "stationNum": "9042", "stationRegion": "Lyon 9 \u00e8me"}},{ "model" : "search.station", "pk" : 265, "fields" : {"stationLong": "4.79971495826679", "stationLat": "45.7760919647711", "stationName": "Marietton ouest", "stationNum": "9043", "stationRegion": "Lyon 9 \u00e8me"}},{ "model" : "search.station", "pk" : 266, "fields" : {"stationLong": "4.80090048324114", "stationLat": "45.7704769200646", "stationName": "Masset / St Pierre de Vaise", "stationNum": "9044", "stationRegion": "Lyon 9 \u00e8me"}},{ "model" : "search.station", "pk" : 267, "fields" : {"stationLong": "4.80515800301495", "stationLat": "45.7701340720176", "stationName": "Gorge de Loup", "stationNum": "9049", "stationRegion": "Lyon 9 \u00e8me"}},{ "model" : "search.station", "pk" : 268, "fields" : {"stationLong": "4.79452530849956", "stationLat": "45.7836371650548", "stationName": "Le Ch\u00e2teau", "stationNum": "9050", "stationRegion": "Lyon 9 \u00e8me"}},{ "model" : "search.station", "pk" : 269, "fields" : {"stationLong": "4.79707090233101", "stationLat": "45.7865247393491", "stationName": "Andr\u00e9i Sakharov", "stationNum": "9051", "stationRegion": "Lyon 9 \u00e8me"}},{ "model" : "search.station", "pk" : 270, "fields" : {"stationLong": "4.79916034097263", "stationLat": "45.7893151875845", "stationName": "Balmont", "stationNum": "9052", "stationRegion": "Lyon 9 \u00e8me"}},{ "model" : "search.station", "pk" : 271, "fields" : {"stationLong": "4.8824104015349", "stationLat": "45.7856324623545", "stationName": "IUT/Feyssine", "stationNum": "10001", "stationRegion": "VILLEURBANNE"}},{ "model" : "search.station", "pk" : 272, "fields" : {"stationLong": "4.87687992444367", "stationLat": "45.7821896441246", "stationName": "INSA", "stationNum": "10002", "stationRegion": "VILLEURBANNE"}},{ "model" : "search.station", "pk" : 273, "fields" : {"stationLong": "4.8626475813298", "stationLat": "45.7762210147081", "stationName": "Tonkin / Allende", "stationNum": "10004", "stationRegion": "VILLEURBANNE"}},{ "model" : "search.station", "pk" : 274, "fields" : {"stationLong": "4.85999116099569", "stationLat": "45.7797016132489", "stationName": "Parc T\u00eate d'Or / Stalingrad", "stationNum": "10005", "stationRegion": "VILLEURBANNE"}},{ "model" : "search.station", "pk" : 275, "fields" : {"stationLong": "4.86313272236022", "stationLat": "45.7702267691494", "stationName": "Charpennes", "stationNum": "10006", "stationRegion": "VILLEURBANNE"}},{ "model" : "search.station", "pk" : 276, "fields" : {"stationLong": "4.86750421313508", "stationLat": "45.7742151784181", "stationName": "Condorcet / Piaton", "stationNum": "10007", "stationRegion": "VILLEURBANNE"}},{ "model" : "search.station", "pk" : 277, "fields" : {"stationLong": "4.87960912512717", "stationLat": "45.7783575402164", "stationName": "Salengro / Vaillant", "stationNum": "10008", "stationRegion": "VILLEURBANNE"}},{ "model" : "search.station", "pk" : 278, "fields" : {"stationLong": "4.88058491112699", "stationLat": "45.7692120735822", "stationName": "Gratte-Ciel / Branly", "stationNum": "10011", "stationRegion": "VILLEURBANNE"}},{ "model" : "search.station", "pk" : 279, "fields" : {"stationLong": "4.8872193605031", "stationLat": "45.7679805857398", "stationName": "IUT", "stationNum": "10012", "stationRegion": "VILLEURBANNE"}},{ "model" : "search.station", "pk" : 280, "fields" : {"stationLong": "4.9011328928203", "stationLat": "45.7650422669277", "stationName": "Cusset / Voyant", "stationNum": "10013", "stationRegion": "VILLEURBANNE"}},{ "model" : "search.station", "pk" : 281, "fields" : {"stationLong": "4.90981821970443", "stationLat": "45.7651240553554", "stationName": "Gare Laurent Bonnevay", "stationNum": "10014", "stationRegion": "VILLEURBANNE"}},{ "model" : "search.station", "pk" : 282, "fields" : {"stationLong": "4.91464300868463", "stationLat": "45.7520997282193", "stationName": "Place de la paix", "stationNum": "10016", "stationRegion": "VILLEURBANNE"}},{ "model" : "search.station", "pk" : 283, "fields" : {"stationLong": "4.88073777969174", "stationLat": "45.7617163505222", "stationName": "Tolsto\u00ef / Verlaine", "stationNum": "10018", "stationRegion": "VILLEURBANNE"}},{ "model" : "search.station", "pk" : 284, "fields" : {"stationLong": "4.88986361796216", "stationLat": "45.759711693591", "stationName": "GrandCl\u00e9ment", "stationNum": "10021", "stationRegion": "VILLEURBANNE"}},{ "model" : "search.station", "pk" : 285, "fields" : {"stationLong": "4.87734642987402", "stationLat": "45.7559510292356", "stationName": "Maisons Neuves", "stationNum": "10024", "stationRegion": "VILLEURBANNE"}},{ "model" : "search.station", "pk" : 286, "fields" : {"stationLong": "4.87314108788078", "stationLat": "45.7636407030235", "stationName": "Totem", "stationNum": "10025", "stationRegion": "VILLEURBANNE"}},{ "model" : "search.station", "pk" : 287, "fields" : {"stationLong": "4.87989386727746", "stationLat": "45.7668306064525", "stationName": "Mairie de Villeurbanne", "stationNum": "10027", "stationRegion": "VILLEURBANNE"}},{ "model" : "search.station", "pk" : 288, "fields" : {"stationLong": "4.87396620986898", "stationLat": "45.7675343020076", "stationName": "R\u00e9publique / Anatole France", "stationNum": "10028", "stationRegion": "VILLEURBANNE"}},{ "model" : "search.station", "pk" : 289, "fields" : {"stationLong": "4.89384801671434", "stationLat": "45.7738436681982", "stationName": "Greuze", "stationNum": "10030", "stationRegion": "VILLEURBANNE"}},{ "model" : "search.station", "pk" : 290, "fields" : {"stationLong": "4.88349957514267", "stationLat": "45.7807198477544", "stationName": "Croix Luizet", "stationNum": "10031", "stationRegion": "VILLEURBANNE"}},{ "model" : "search.station", "pk" : 291, "fields" : {"stationLong": "4.89996521942795", "stationLat": "45.7571560146472", "stationName": "Pixel", "stationNum": "10032", "stationRegion": "VILLEURBANNE"}},{ "model" : "search.station", "pk" : 292, "fields" : {"stationLong": "4.8861572848566", "stationLat": "45.7617882849687", "stationName": "MJC", "stationNum": "10034", "stationRegion": "VILLEURBANNE"}},{ "model" : "search.station", "pk" : 293, "fields" : {"stationLong": "4.90047953036513", "stationLat": "45.7631587956906", "stationName": "Boiron Grang\u00e9", "stationNum": "10035", "stationRegion": "VILLEURBANNE"}},{ "model" : "search.station", "pk" : 294, "fields" : {"stationLong": "4.85915458576084", "stationLat": "45.7743568286995", "stationName": "Chaplin / Dutri\u00e9voz", "stationNum": "10036", "stationRegion": "VILLEURBANNE"}},{ "model" : "search.station", "pk" : 295, "fields" : {"stationLong": "4.86677832802409", "stationLat": "45.7790457737186", "stationName": "Condorcet / 11 Nov. 1918", "stationNum": "10038", "stationRegion": "VILLEURBANNE"}},{ "model" : "search.station", "pk" : 296, "fields" : {"stationLong": "4.89150082452704", "stationLat": "45.7794499265826", "stationName": "Bouvier / 8 mai 1945", "stationNum": "10039", "stationRegion": "VILLEURBANNE"}},{ "model" : "search.station", "pk" : 297, "fields" : {"stationLong": "4.89886566289764", "stationLat": "45.7529723995868", "stationName": "Kimmerling", "stationNum": "10041", "stationRegion": "VILLEURBANNE"}},{ "model" : "search.station", "pk" : 298, "fields" : {"stationLong": "4.8905858366251", "stationLat": "45.7830110745979", "stationName": "Salengro / 8 mai 1945", "stationNum": "10043", "stationRegion": "VILLEURBANNE"}},{ "model" : "search.station", "pk" : 299, "fields" : {"stationLong": "4.86715309709659", "stationLat": "45.7707467009802", "stationName": "Charmettes / Zola", "stationNum": "10046", "stationRegion": "VILLEURBANNE"}},{ "model" : "search.station", "pk" : 300, "fields" : {"stationLong": "4.88499768198071", "stationLat": "45.7711723255043", "stationName": "Pressens\u00e9 / Bienvenus", "stationNum": "10047", "stationRegion": "VILLEURBANNE"}},{ "model" : "search.station", "pk" : 301, "fields" : {"stationLong": "4.87588806571722", "stationLat": "45.7592438500941", "stationName": "Place Marengo", "stationNum": "10048", "stationRegion": "VILLEURBANNE"}},{ "model" : "search.station", "pk" : 302, "fields" : {"stationLong": "4.89672370709135", "stationLat": "45.7691801944572", "stationName": "Pr\u00e9ssens\u00e9 / 8 mai 1945", "stationNum": "10049", "stationRegion": "VILLEURBANNE"}},{ "model" : "search.station", "pk" : 303, "fields" : {"stationLong": "4.86290216902877", "stationLat": "45.779408313608", "stationName": "Rossellini / 11 Novembre", "stationNum": "10053", "stationRegion": "VILLEURBANNE"}},{ "model" : "search.station", "pk" : 304, "fields" : {"stationLong": "4.85952335379158", "stationLat": "45.7767057578019", "stationName": "Stalingrad / Meli\u00e8s", "stationNum": "10054", "stationRegion": "VILLEURBANNE"}},{ "model" : "search.station", "pk" : 305, "fields" : {"stationLong": "4.86711492199288", "stationLat": "45.7764535731413", "stationName": "Condorcet / Galline", "stationNum": "10055", "stationRegion": "VILLEURBANNE"}},{ "model" : "search.station", "pk" : 306, "fields" : {"stationLong": "4.8719521951028", "stationLat": "45.7791121885925", "stationName": "11 novembre / Gaston Berger", "stationNum": "10056", "stationRegion": "VILLEURBANNE"}},{ "model" : "search.station", "pk" : 307, "fields" : {"stationLong": "4.89215042623492", "stationLat": "45.7671263864269", "stationName": "m\u00e9tro Flachet", "stationNum": "10058", "stationRegion": "VILLEURBANNE"}},{ "model" : "search.station", "pk" : 308, "fields" : {"stationLong": "4.88424151324261", "stationLat": "45.7688763179067", "stationName": "Anatole France / Lherminier", "stationNum": "10059", "stationRegion": "VILLEURBANNE"}},{ "model" : "search.station", "pk" : 309, "fields" : {"stationLong": "4.87897574568985", "stationLat": "45.7587882609002", "stationName": "Saint Exup\u00e9ry", "stationNum": "10060", "stationRegion": "VILLEURBANNE"}},{ "model" : "search.station", "pk" : 310, "fields" : {"stationLong": "4.87295938886729", "stationLat": "45.7707838400684", "stationName": "m\u00e9tro R\u00e9publique", "stationNum": "10061", "stationRegion": "VILLEURBANNE"}},{ "model" : "search.station", "pk" : 311, "fields" : {"stationLong": "4.88561275425414", "stationLat": "45.7583893829182", "stationName": "Perrin/Jean Jaur\u00e8s", "stationNum": "10063", "stationRegion": "VILLEURBANNE"}},{ "model" : "search.station", "pk" : 312, "fields" : {"stationLong": "4.88431892911373", "stationLat": "45.7648217045186", "stationName": "Rollet / 4 ao\u00fbt 1789 / Blanqui", "stationNum": "10064", "stationRegion": "VILLEURBANNE"}},{ "model" : "search.station", "pk" : 313, "fields" : {"stationLong": "4.89645432932126", "stationLat": "45.7615596406929", "stationName": "Lyc\u00e9e Marie Curie", "stationNum": "10071", "stationRegion": "VILLEURBANNE"}},{ "model" : "search.station", "pk" : 314, "fields" : {"stationLong": "4.86428606575088", "stationLat": "45.7742255397183", "stationName": "Jacques Brel /Chorel", "stationNum": "10072", "stationRegion": "VILLEURBANNE"}},{ "model" : "search.station", "pk" : 315, "fields" : {"stationLong": "4.87246226205668", "stationLat": "45.7615354261746", "stationName": "Nouveau Mus\u00e9e D'Art Contemporain", "stationNum": "10073", "stationRegion": "VILLEURBANNE"}},{ "model" : "search.station", "pk" : 316, "fields" : {"stationLong": "4.87694841471154", "stationLat": "45.7700480878179", "stationName": "Zola / Passage Rey", "stationNum": "10074", "stationRegion": "VILLEURBANNE"}},{ "model" : "search.station", "pk" : 317, "fields" : {"stationLong": "4.86569926844606", "stationLat": "45.7722995938508", "stationName": "Charmettes / P\u00e9ri / Philip", "stationNum": "10075", "stationRegion": "VILLEURBANNE"}},{ "model" : "search.station", "pk" : 318, "fields" : {"stationLong": "4.87916148913811", "stationLat": "45.7681304002299", "stationName": "Anatole France / Barbusse", "stationNum": "10079", "stationRegion": "VILLEURBANNE"}},{ "model" : "search.station", "pk" : 319, "fields" : {"stationLong": "4.88028987133402", "stationLat": "45.7754259915471", "stationName": "Vaillant/Perroncel", "stationNum": "10080", "stationRegion": "VILLEURBANNE"}},{ "model" : "search.station", "pk" : 320, "fields" : {"stationLong": "4.88398291965897", "stationLat": "45.7777983855256", "stationName": "Ch\u00e2teau Gaillard / Filature /", "stationNum": "10083", "stationRegion": "VILLEURBANNE"}},{ "model" : "search.station", "pk" : 321, "fields" : {"stationLong": "4.87127311041049", "stationLat": "45.7835136793199", "stationName": "La Doua / Avenue des Arts", "stationNum": "10084", "stationRegion": "VILLEURBANNE"}},{ "model" : "search.station", "pk" : 322, "fields" : {"stationLong": "4.88952608578932", "stationLat": "45.7698360005898", "stationName": "Anatole France / Pressens\u00e9", "stationNum": "10086", "stationRegion": "VILLEURBANNE"}},{ "model" : "search.station", "pk" : 323, "fields" : {"stationLong": "4.90069696832092", "stationLat": "45.7606037573682", "stationName": "Bon Coin", "stationNum": "10087", "stationRegion": "VILLEURBANNE"}},{ "model" : "search.station", "pk" : 324, "fields" : {"stationLong": "4.89787173699274", "stationLat": "45.7662427816577", "stationName": "4 ao\u00fbt 1789 / Zola", "stationNum": "10088", "stationRegion": "VILLEURBANNE"}},{ "model" : "search.station", "pk" : 325, "fields" : {"stationLong": "4.87425712432627", "stationLat": "45.7731377075237", "stationName": "Colin /Ottavi", "stationNum": "10089", "stationRegion": "VILLEURBANNE"}},{ "model" : "search.station", "pk" : 326, "fields" : {"stationLong": "4.88803874087978", "stationLat": "45.7747507993117", "stationName": "Ch\u00e2teau Gaillard / Dupeuble", "stationNum": "10091", "stationRegion": "VILLEURBANNE"}},{ "model" : "search.station", "pk" : 327, "fields" : {"stationLong": "4.89036956577188", "stationLat": "45.7715577376675", "stationName": "Montgolfier / Ch\u00e2teau Gaillard", "stationNum": "10092", "stationRegion": "VILLEURBANNE"}},{ "model" : "search.station", "pk" : 328, "fields" : {"stationLong": "4.87433130874712", "stationLat": "45.7794737729051", "stationName": "Einstein / 1 novembre 1918", "stationNum": "10101", "stationRegion": "VILLEURBANNE"}},{ "model" : "search.station", "pk" : 329, "fields" : {"stationLong": "4.87132691289157", "stationLat": "45.780944479741", "stationName": "DOUA / Gaston Berger", "stationNum": "10102", "stationRegion": "VILLEURBANNE"}},{ "model" : "search.station", "pk" : 330, "fields" : {"stationLong": "4.87740423257663", "stationLat": "45.7844851872384", "stationName": "DOUA / Rue des sports", "stationNum": "10103", "stationRegion": "VILLEURBANNE"}},{ "model" : "search.station", "pk" : 331, "fields" : {"stationLong": "4.88275786249483", "stationLat": "45.7595768332516", "stationName": "M\u00e9moire & Soci\u00e9t\u00e9", "stationNum": "10110", "stationRegion": "VILLEURBANNE"}},{ "model" : "search.station", "pk" : 332, "fields" : {"stationLong": "4.86225781965823", "stationLat": "45.7703330438207", "stationName": "Charles Hernu / Vitton", "stationNum": "10111", "stationRegion": "VILLEURBANNE"}},{ "model" : "search.station", "pk" : 333, "fields" : {"stationLong": "4.88513867618816", "stationLat": "45.7545359906761", "stationName": "Place de la Reconnaissance", "stationNum": "10112", "stationRegion": "VILLEURBANNE"}},{ "model" : "search.station", "pk" : 334, "fields" : {"stationLong": "4.8914894327086", "stationLat": "45.7557668546375", "stationName": "Gare de Villeurbanne", "stationNum": "10113", "stationRegion": "VILLEURBANNE"}},{ "model" : "search.station", "pk" : 335, "fields" : {"stationLong": "4.91080670866867", "stationLat": "45.7579070732361", "stationName": "Bel Air / Les Brosses", "stationNum": "10114", "stationRegion": "VILLEURBANNE"}},{ "model" : "search.station", "pk" : 336, "fields" : {"stationLong": "4.90566388974862", "stationLat": "45.7540979307099", "stationName": "Place d'Espagne", "stationNum": "10115", "stationRegion": "VILLEURBANNE"}},{ "model" : "search.station", "pk" : 337, "fields" : {"stationLong": "4.90621033310645", "stationLat": "45.7606109098072", "stationName": "Blum / Fa\u00ffs", "stationNum": "10116", "stationRegion": "VILLEURBANNE"}},{ "model" : "search.station", "pk" : 338, "fields" : {"stationLong": "4.89233360718211", "stationLat": "45.7645636665294", "stationName": "La P\u00e9rrali\u00e8re", "stationNum": "10117", "stationRegion": "VILLEURBANNE"}},{ "model" : "search.station", "pk" : 339, "fields" : {"stationLong": "4.9005991607434", "stationLat": "45.767153312728", "stationName": "Bourgchanin / Chambfort", "stationNum": "10118", "stationRegion": "VILLEURBANNE"}},{ "model" : "search.station", "pk" : 340, "fields" : {"stationLong": "4.9044888457893", "stationLat": "45.7804458217109", "stationName": "Saint Jean", "stationNum": "10119", "stationRegion": "VILLEURBANNE"}},{ "model" : "search.station", "pk" : 341, "fields" : {"stationLong": "4.87162917814437", "stationLat": "45.7762517515065", "stationName": "Salengro / Descartes", "stationNum": "10120", "stationRegion": "VILLEURBANNE"}},{ "model" : "search.station", "pk" : 342, "fields" : {"stationLong": "4.87905957666225", "stationLat": "45.7719249686766", "stationName": "Parc du Centre", "stationNum": "10121", "stationRegion": "VILLEURBANNE"}},{ "model" : "search.station", "pk" : 343, "fields" : {"stationLong": "4.89708592411878", "stationLat": "45.7840513436847", "stationName": "Verdun/Desgrand", "stationNum": "10122", "stationRegion": "VILLEURBANNE"}},{ "model" : "search.station", "pk" : 344, "fields" : {"stationLong": "4.83371342158913", "stationLat": "45.7857755308468", "stationName": "Gare de Cuire", "stationNum": "11001", "stationRegion": "CALUIRE-ET-CUIRE"}},{ "model" : "search.station", "pk" : 345, "fields" : {"stationLong": "4.84830364350925", "stationLat": "45.7857298743381", "stationName": "Saint-Clair", "stationNum": "11002", "stationRegion": "CALUIRE-ET-CUIRE"}},{ "model" : "search.station", "pk" : 346, "fields" : {"stationLong": "4.82365975628127", "stationLat": "45.7917199753399", "stationName": "Place de la Rochette", "stationNum": "11003", "stationRegion": "CALUIRE-ET-CUIRE"}},{ "model" : "search.station", "pk" : 347, "fields" : {"stationLong": "4.92060394568861", "stationLat": "45.7608131946829", "stationName": "La Soie", "stationNum": "12001", "stationRegion": "VAULX-EN-VELIN"}},{ "model" : "search.station", "pk" : 348, "fields" : {"stationLong": "4.91927578594737", "stationLat": "45.7644003130588", "stationName": "Carr\u00e9 de Soie", "stationNum": "12002", "stationRegion": "VAULX-EN-VELIN"}}]